{
"type": "FeatureCollection",
"crs": { "type": "name", "properties": { "name": "urn:ogc:def:crs:EPSG::4236" } },
"features": [
{ "type": "Feature", "properties": { "entrance_name": "Terminus at Syd Kronenthal Park", "ada": "not handicap accessible", "description": "The east end of the bikepath is most easily accessed from Syd Kronenthal Park, 3459 McManus Avenue, Culver City, a few blocks south of Washington Blvd. The bike path entrance is behind the park’s ballfield backstop. You’ll go down a steep ramp and make a u-turn onto the bike path. Before you do that, check out the colorful mural on the retaining wall behind the backstop. The Ballona Creek bikepath connects here to the Exposition light rail bikepath, which is at street level parallel to the light rail tracks." }, "geometry": { "type": "Point", "coordinates": [ -118.37683883474628, 34.0268912061699 ] } },
{ "type": "Feature", "properties": { "entrance_name": "Duquesne Avenue", "ada": "steel ramp, not handicap accessible", "description": "Approachable from either Culver or Jefferson Blvd, this well-used entrance is on the downstream (west) side across the creek from Culver City’s Transportation Facility. You can’t miss BCR’s “Rivers of the World” mural on the entrance ramp or the giant urn sculpture across the creek." }, "geometry": { "type": "Point", "coordinates": [ -118.378521056652829, 34.022064898993044 ] } },
{ "type": "Feature", "properties": { "entrance_name": "Overland Avenue", "ada": "ADA Accessible on west side", "description": "Approachable from either Culver or Jefferson Blvds, this entrance is on the west side next to the Culver City Julian Dixon Library, where you’ll see BCR’s “Postcards From Ballona” mural on the parking lot retaining wall behind the library as you enter the bike path. There is a second entrance on the east side of Overland Avenue. Limited street parking. The bikepath between Overland Ave. and Sepulveda Blvd (#5) is flat and handicap accessible." }, "geometry": { "type": "Point", "coordinates": [ -118.389404791221722, 34.017474647186638 ] } },
{ "type": "Feature", "properties": { "entrance_name": "Ocean Drive and Pedestrian Bridge", "ada": "?", "description": "This entrance is located on Ocean Drive, which is immediately south of the creek west of Overland Avenue. Cross the creek to the bikepath via the pedestrian bridge. Handicap accessible." }, "geometry": { "type": "Point", "coordinates": [ -118.396343112159215, 34.007390754001172 ] } },
{ "type": "Feature", "properties": { "entrance_name": "Sepulveda Boulevard", "ada": "?", "description": "There are bikepath entrances on both sides of Sepulveda Boulevard on the north side of the creek. The east-side entrance is flat all the way to Overland Ave. The west side entrance is flat for just a short distance, then meets a steep ramp." }, "geometry": { "type": "Point", "coordinates": [ -118.401514990624278, 33.999910777684121 ] } },
{ "type": "Feature", "properties": { "entrance_name": "Sawtelle Blvd", "ada": "?", "description": "The entrance is located on tiny Culver Drive on the north side of the creek at Purdue Ave., a block west of Sawtelle Blvd. Steep ramp." }, "geometry": { "type": "Point", "coordinates": [ -118.40306391893229, 33.996979167211968 ] } },
{ "type": "Feature", "properties": { "entrance_name": "Slauson Avenue", "ada": "?", "description": "This entrance is located where Slauson Avenue dead-ends into the creek on the north side. The entrance ramp passes through a little community garden. Short but steep access ramp." }, "geometry": { "type": "Point", "coordinates": [ -118.407951592534587, 33.992373329268744 ] } },
{ "type": "Feature", "properties": { "entrance_name": "Inglewood Boulevard", "ada": "?", "description": "Entrance is on the east side of Inglewood Boulevard. Flat access ramp." }, "geometry": { "type": "Point", "coordinates": [ -118.411846255348394, 33.990033677753033 ] } },
{ "type": "Feature", "properties": { "entrance_name": "Centinela Avenue", "ada": "?", "description": "One entrance is on the west side of the street, where there is some off-street space for parking. Another entrance is on the east side of Centinela Avenue, a short distance down a small side street called Culver Drive. Flat access ramp with benches and a drinking fountain." }, "geometry": { "type": "Point", "coordinates": [ -118.41592386571655, 33.987012749824068 ] } },
{ "type": "Feature", "properties": { "entrance_name": "McConnell Avenue", "ada": "?", "description": "Reachable from Culver Blvd or Braddock Ave, this entrance is located where McConnell Ave ends at the north side of the creek. Steep but short ramp." }, "geometry": { "type": "Point", "coordinates": [ -118.422704263851912, 33.982056458546552 ] } },
{ "type": "Feature", "properties": { "entrance_name": "Lincoln Boulevard", "ada": "?", "description": "There are entrances are on both sides of Lincoln Boulevard but no parking. To the north, Lincoln Boulevard is at present not a bike-friendly street; to the south, however, there are bike lanes that connect Ballona Creek with Loyola Marymount University up the hill (not recommended for youngsters)." }, "geometry": { "type": "Point", "coordinates": [ -118.453730462614459, 33.963419691577073 ] } },
{ "type": "Feature", "properties": { "entrance_name": "Marina del Rey (Fiji Way)", "ada": "?", "description": "You can park at Fisherman’s Village (a fee lot) to access the Ballona Creek bikepath at the end of Fiji Way. Fiji Way also provides a connection to a bikepath winding through Marina del Rey out to Washington Blvd. Flat and handicap accessible." }, "geometry": { "type": "Point", "coordinates": [ -118.432486478464881, 33.975366664785064 ] } },
{ "type": "Feature", "properties": { "entrance_name": "Pacific Avenue bridge to Beach Bikepath", "ada": "?", "description": "At the western end of Ballona Creek, the bikepath crosses the Pacific Avenue bridge over the creek, jogs right and connects with the beach bikepath which extends south to Redondo Beach. Flat and accessible." }, "geometry": { "type": "Point", "coordinates": [ -118.444329307190017, 33.968589814335097 ] } }
]
}
